header:
  stamp:
    sec: 52
    nanosec: 703000000
  frame_id: map
pose:
  pose:
    position:
      x: -2.075585022818799
      y: -0.4910034170113471
      z: 0.0
    orientation:
      x: 0.0
      y: 0.0
      z: -0.0034913742656508574
      w: 0.9999939051342949
  covariance:
  - 0.1923595742235218
  - -0.0005591787933392212
  - 0.0
  - 0.0
  - 0.0
  - 0.0
  - -0.0005591787933392212
  - 0.2182028464855009
  - 0.0
  - 0.0
  - 0.0
  - 0.0
  - 0.0
  - 0.0
  - 0.0
  - 0.0
  - 0.0
  - 0.0
  - 0.0
  - 0.0
  - 0.0
  - 0.0
  - 0.0
  - 0.0
  - 0.0
  - 0.0
  - 0.0
  - 0.0
  - 0.0
  - 0.0
  - 0.0
  - 0.0
  - 0.0
  - 0.0
  - 0.0
  - 0.05478802277085872
---
header:
  stamp:
    sec: 52
    nanosec: 703000000
  frame_id: map
pose:
  pose:
    position:
      x: -2.075585022818799
      y: -0.4910034170113471
      z: 0.0
    orientation:
      x: 0.0
      y: 0.0
      z: -0.0034913742656508574
      w: 0.9999939051342949
  covariance:
  - 0.1923595742235218
  - -0.0005591787933392212
  - 0.0
  - 0.0
  - 0.0
  - 0.0
  - -0.0005591787933392212
  - 0.2182028464855009
  - 0.0
  - 0.0
  - 0.0
  - 0.0
  - 0.0
  - 0.0
  - 0.0
  - 0.0
  - 0.0
  - 0.0
  - 0.0
  - 0.0
  - 0.0
  - 0.0
  - 0.0
  - 0.0
  - 0.0
  - 0.0
  - 0.0
  - 0.0
  - 0.0
  - 0.0
  - 0.0
  - 0.0
  - 0.0
  - 0.0
  - 0.0
  - 0.05478802277085872
---
header:
  stamp:
    sec: 153
    nanosec: 303000000
  frame_id: map
pose:
  pose:
    position:
      x: -1.894242646994842
      y: -0.4796307373139762
      z: 0.0
    orientation:
      x: 0.0
      y: 0.0
      z: 0.14919046926581297
      w: 0.9888084768448572
  covariance:
  - 0.16512269584354788
  - -0.007398752994414282
  - 0.0
  - 0.0
  - 0.0
  - 0.0
  - -0.0073987529944140595
  - 0.19338140228064263
  - 0.0
  - 0.0
  - 0.0
  - 0.0
  - 0.0
  - 0.0
  - 0.0
  - 0.0
  - 0.0
  - 0.0
  - 0.0
  - 0.0
  - 0.0
  - 0.0
  - 0.0
  - 0.0
  - 0.0
  - 0.0
  - 0.0
  - 0.0
  - 0.0
  - 0.0
  - 0.0
  - 0.0
  - 0.0
  - 0.0
  - 0.0
  - 0.059885401340789124
---
header:
  stamp:
    sec: 153
    nanosec: 903000000
  frame_id: map
pose:
  pose:
    position:
      x: -1.7456079173777255
      y: -0.46820333865586145
      z: 0.0
    orientation:
      x: 0.0
      y: 0.0
      z: 0.2806420549576059
      w: 0.9598125009548334
  covariance:
  - 0.12370536514700392
  - -0.004719650516415985
  - 0.0
  - 0.0
  - 0.0
  - 0.0
  - -0.004719650516415874
  - 0.1893658728597909
  - 0.0
  - 0.0
  - 0.0
  - 0.0
  - 0.0
  - 0.0
  - 0.0
  - 0.0
  - 0.0
  - 0.0
  - 0.0
  - 0.0
  - 0.0
  - 0.0
  - 0.0
  - 0.0
  - 0.0
  - 0.0
  - 0.0
  - 0.0
  - 0.0
  - 0.0
  - 0.0
  - 0.0
  - 0.0
  - 0.0
  - 0.0
  - 0.05864107665335302
---
header:
  stamp:
    sec: 154
    nanosec: 703000000
  frame_id: map
pose:
  pose:
    position:
      x: -1.6030283764892126
      y: -0.35886880795586557
      z: 0.0
    orientation:
      x: 0.0
      y: 0.0
      z: 0.3952677818264122
      w: 0.9185659370181477
  covariance:
  - 0.11007912174370915
  - -0.00787056336503078
  - 0.0
  - 0.0
  - 0.0
  - 0.0
  - -0.00787056336503078
  - 0.18245088855095484
  - 0.0
  - 0.0
  - 0.0
  - 0.0
  - 0.0
  - 0.0
  - 0.0
  - 0.0
  - 0.0
  - 0.0
  - 0.0
  - 0.0
  - 0.0
  - 0.0
  - 0.0
  - 0.0
  - 0.0
  - 0.0
  - 0.0
  - 0.0
  - 0.0
  - 0.0
  - 0.0
  - 0.0
  - 0.0
  - 0.0
  - 0.0
  - 0.05978155213632564
---
header:
  stamp:
    sec: 156
    nanosec: 503000000
  frame_id: map
pose:
  pose:
    position:
      x: -1.3430941335915052
      y: -0.08286297183468891
      z: 0.0
    orientation:
      x: 0.0
      y: 0.0
      z: 0.3773880912161608
      w: 0.9260551973874034
  covariance:
  - 0.10886313287740812
  - -0.012261591237453393
  - 0.0
  - 0.0
  - 0.0
  - 0.0
  - -0.012261591237453393
  - 0.20279077152054342
  - 0.0
  - 0.0
  - 0.0
  - 0.0
  - 0.0
  - 0.0
  - 0.0
  - 0.0
  - 0.0
  - 0.0
  - 0.0
  - 0.0
  - 0.0
  - 0.0
  - 0.0
  - 0.0
  - 0.0
  - 0.0
  - 0.0
  - 0.0
  - 0.0
  - 0.0
  - 0.0
  - 0.0
  - 0.0
  - 0.0
  - 0.0
  - 0.08994640574531625
---
header:
  stamp:
    sec: 158
    nanosec: 103000000
  frame_id: map
pose:
  pose:
    position:
      x: -1.108270541494225
      y: 0.1344492200237583
      z: 0.0
    orientation:
      x: 0.0
      y: 0.0
      z: 0.3758630448000264
      w: 0.9266752244198899
  covariance:
  - 0.11103768826748306
  - -0.013692322248327476
  - 0.0
  - 0.0
  - 0.0
  - 0.0
  - -0.013692322248327532
  - 0.20021395635645006
  - 0.0
  - 0.0
  - 0.0
  - 0.0
  - 0.0
  - 0.0
  - 0.0
  - 0.0
  - 0.0
  - 0.0
  - 0.0
  - 0.0
  - 0.0
  - 0.0
  - 0.0
  - 0.0
  - 0.0
  - 0.0
  - 0.0
  - 0.0
  - 0.0
  - 0.0
  - 0.0
  - 0.0
  - 0.0
  - 0.0
  - 0.0
  - 0.09632531715575703
---
header:
  stamp:
    sec: 159
    nanosec: 703000000
  frame_id: map
pose:
  pose:
    position:
      x: -0.8672894569227354
      y: 0.36383361417383864
      z: 0.0
    orientation:
      x: 0.0
      y: 0.0
      z: 0.37598224317518414
      w: 0.9266268681713027
  covariance:
  - 0.10974370090141017
  - -0.008274821770314578
  - 0.0
  - 0.0
  - 0.0
  - 0.0
  - -0.008274821770314578
  - 0.2175098893586469
  - 0.0
  - 0.0
  - 0.0
  - 0.0
  - 0.0
  - 0.0
  - 0.0
  - 0.0
  - 0.0
  - 0.0
  - 0.0
  - 0.0
  - 0.0
  - 0.0
  - 0.0
  - 0.0
  - 0.0
  - 0.0
  - 0.0
  - 0.0
  - 0.0
  - 0.0
  - 0.0
  - 0.0
  - 0.0
  - 0.0
  - 0.0
  - 0.09433546426662467
---
header:
  stamp:
    sec: 161
    nanosec: 503000000
  frame_id: map
pose:
  pose:
    position:
      x: -0.6067997446646105
      y: 0.6222500450522761
      z: 0.0
    orientation:
      x: 0.0
      y: 0.0
      z: 0.39947754516097
      w: 0.9167429797452311
  covariance:
  - 0.10783358516436353
  - -0.005363117444007415
  - 0.0
  - 0.0
  - 0.0
  - 0.0
  - -0.005363117444007415
  - 0.21345154046474085
  - 0.0
  - 0.0
  - 0.0
  - 0.0
  - 0.0
  - 0.0
  - 0.0
  - 0.0
  - 0.0
  - 0.0
  - 0.0
  - 0.0
  - 0.0
  - 0.0
  - 0.0
  - 0.0
  - 0.0
  - 0.0
  - 0.0
  - 0.0
  - 0.0
  - 0.0
  - 0.0
  - 0.0
  - 0.0
  - 0.0
  - 0.0
  - 0.11182978879433507
---
header:
  stamp:
    sec: 163
    nanosec: 903000000
  frame_id: map
pose:
  pose:
    position:
      x: -0.3780499080853541
      y: 0.8785593526428078
      z: 0.0
    orientation:
      x: 0.0
      y: 0.0
      z: 0.41932102151785855
      w: 0.9078380257034949
  covariance:
  - 0.10586825035245148
  - -0.013424230514467395
  - 0.0
  - 0.0
  - 0.0
  - 0.0
  - -0.013424230514467395
  - 0.21231894045791755
  - 0.0
  - 0.0
  - 0.0
  - 0.0
  - 0.0
  - 0.0
  - 0.0
  - 0.0
  - 0.0
  - 0.0
  - 0.0
  - 0.0
  - 0.0
  - 0.0
  - 0.0
  - 0.0
  - 0.0
  - 0.0
  - 0.0
  - 0.0
  - 0.0
  - 0.0
  - 0.0
  - 0.0
  - 0.0
  - 0.0
  - 0.0
  - 0.10754436617353477
---
header:
  stamp:
    sec: 164
    nanosec: 503000000
  frame_id: map
pose:
  pose:
    position:
      x: -0.3253745679128266
      y: 0.9783496804059318
      z: 0.0
    orientation:
      x: 0.0
      y: 0.0
      z: 0.5120682418843794
      w: 0.8589447686862297
  covariance:
  - 0.08776700407118045
  - -0.005210546157974616
  - 0.0
  - 0.0
  - 0.0
  - 0.0
  - -0.005210546157974616
  - 0.18097753667016636
  - 0.0
  - 0.0
  - 0.0
  - 0.0
  - 0.0
  - 0.0
  - 0.0
  - 0.0
  - 0.0
  - 0.0
  - 0.0
  - 0.0
  - 0.0
  - 0.0
  - 0.0
  - 0.0
  - 0.0
  - 0.0
  - 0.0
  - 0.0
  - 0.0
  - 0.0
  - 0.0
  - 0.0
  - 0.0
  - 0.0
  - 0.0
  - 0.07726669092424068
---
header:
  stamp:
    sec: 165
    nanosec: 903000000
  frame_id: map
pose:
  pose:
    position:
      x: -0.2111282700776666
      y: 1.2599343537985743
      z: 0.0
    orientation:
      x: 0.0
      y: 0.0
      z: 0.569426854246265
      w: 0.8220420048046224
  covariance:
  - 0.0821449081634058
  - -0.011310563660704653
  - 0.0
  - 0.0
  - 0.0
  - 0.0
  - -0.011310563660704653
  - 0.1849701389000844
  - 0.0
  - 0.0
  - 0.0
  - 0.0
  - 0.0
  - 0.0
  - 0.0
  - 0.0
  - 0.0
  - 0.0
  - 0.0
  - 0.0
  - 0.0
  - 0.0
  - 0.0
  - 0.0
  - 0.0
  - 0.0
  - 0.0
  - 0.0
  - 0.0
  - 0.0
  - 0.0
  - 0.0
  - 0.0
  - 0.0
  - 0.0
  - 0.08068481356370313
---
header:
  stamp:
    sec: 167
    nanosec: 303000000
  frame_id: map
pose:
  pose:
    position:
      x: -0.11423597365236203
      y: 1.5404754070298698
      z: 0.0
    orientation:
      x: 0.0
      y: 0.0
      z: 0.5717047504143212
      w: 0.8204594312662258
  covariance:
  - 0.08052537453147424
  - -0.015014690323165492
  - 0.0
  - 0.0
  - 0.0
  - 0.0
  - -0.015014690323165492
  - 0.17836258508323244
  - 0.0
  - 0.0
  - 0.0
  - 0.0
  - 0.0
  - 0.0
  - 0.0
  - 0.0
  - 0.0
  - 0.0
  - 0.0
  - 0.0
  - 0.0
  - 0.0
  - 0.0
  - 0.0
  - 0.0
  - 0.0
  - 0.0
  - 0.0
  - 0.0
  - 0.0
  - 0.0
  - 0.0
  - 0.0
  - 0.0
  - 0.0
  - 0.08467220015048502
---
header:
  stamp:
    sec: 169
    nanosec: 103000000
  frame_id: map
pose:
  pose:
    position:
      x: -0.035142735745646414
      y: 1.7658494007966168
      z: 0.0
    orientation:
      x: 0.0
      y: 0.0
      z: 0.576986568674542
      w: 0.8167536345613516
  covariance:
  - 0.07466675773810423
  - -0.013379004129084153
  - 0.0
  - 0.0
  - 0.0
  - 0.0
  - -0.013379004129084153
  - 0.17433001169084106
  - 0.0
  - 0.0
  - 0.0
  - 0.0
  - 0.0
  - 0.0
  - 0.0
  - 0.0
  - 0.0
  - 0.0
  - 0.0
  - 0.0
  - 0.0
  - 0.0
  - 0.0
  - 0.0
  - 0.0
  - 0.0
  - 0.0
  - 0.0
  - 0.0
  - 0.0
  - 0.0
  - 0.0
  - 0.0
  - 0.0
  - 0.0
  - 0.08432421081798137
---
header:
  stamp:
    sec: 170
    nanosec: 503000000
  frame_id: map
pose:
  pose:
    position:
      x: 0.02919522139922968
      y: 2.0291187166574645
      z: 0.0
    orientation:
      x: 0.0
      y: 0.0
      z: 0.6211124359378118
      w: 0.7837214696072818
  covariance:
  - 0.07937065793432527
  - -0.014108093774322303
  - 0.0
  - 0.0
  - 0.0
  - 0.0
  - -0.014108093774322282
  - 0.1763638502061724
  - 0.0
  - 0.0
  - 0.0
  - 0.0
  - 0.0
  - 0.0
  - 0.0
  - 0.0
  - 0.0
  - 0.0
  - 0.0
  - 0.0
  - 0.0
  - 0.0
  - 0.0
  - 0.0
  - 0.0
  - 0.0
  - 0.0
  - 0.0
  - 0.0
  - 0.0
  - 0.0
  - 0.0
  - 0.0
  - 0.0
  - 0.0
  - 0.09988674417148664
---
header:
  stamp:
    sec: 171
    nanosec: 903000000
  frame_id: map
pose:
  pose:
    position:
      x: 0.09564518701007421
      y: 2.318416246663457
      z: 0.0
    orientation:
      x: 0.0
      y: 0.0
      z: 0.6074005516295317
      w: 0.7943957262474041
  covariance:
  - 0.10217500087146301
  - -0.030205713349234553
  - 0.0
  - 0.0
  - 0.0
  - 0.0
  - -0.030205713349234553
  - 0.17470875788133355
  - 0.0
  - 0.0
  - 0.0
  - 0.0
  - 0.0
  - 0.0
  - 0.0
  - 0.0
  - 0.0
  - 0.0
  - 0.0
  - 0.0
  - 0.0
  - 0.0
  - 0.0
  - 0.0
  - 0.0
  - 0.0
  - 0.0
  - 0.0
  - 0.0
  - 0.0
  - 0.0
  - 0.0
  - 0.0
  - 0.0
  - 0.0
  - 0.12219534219264122
---
header:
  stamp:
    sec: 173
    nanosec: 303000000
  frame_id: map
pose:
  pose:
    position:
      x: 0.16973574423434834
      y: 2.5869473264894167
      z: 0.0
    orientation:
      x: 0.0
      y: 0.0
      z: 0.5686138639066716
      w: 0.82260456707529
  covariance:
  - 0.13197476810586864
  - -0.0413676598340294
  - 0.0
  - 0.0
  - 0.0
  - 0.0
  - -0.0413676598340294
  - 0.16906795666748486
  - 0.0
  - 0.0
  - 0.0
  - 0.0
  - 0.0
  - 0.0
  - 0.0
  - 0.0
  - 0.0
  - 0.0
  - 0.0
  - 0.0
  - 0.0
  - 0.0
  - 0.0
  - 0.0
  - 0.0
  - 0.0
  - 0.0
  - 0.0
  - 0.0
  - 0.0
  - 0.0
  - 0.0
  - 0.0
  - 0.0
  - 0.0
  - 0.1368925433653813
---
header:
  stamp:
    sec: 175
    nanosec: 103000000
  frame_id: map
pose:
  pose:
    position:
      x: 0.25049837805938524
      y: 2.7272405482552906
      z: 0.0
    orientation:
      x: 0.0
      y: 0.0
      z: 0.4510651088054266
      w: 0.8924910462398761
  covariance:
  - 0.1475175336343335
  - -0.049684753048596764
  - 0.0
  - 0.0
  - 0.0
  - 0.0
  - -0.049684753048596764
  - 0.15948168775475668
  - 0.0
  - 0.0
  - 0.0
  - 0.0
  - 0.0
  - 0.0
  - 0.0
  - 0.0
  - 0.0
  - 0.0
  - 0.0
  - 0.0
  - 0.0
  - 0.0
  - 0.0
  - 0.0
  - 0.0
  - 0.0
  - 0.0
  - 0.0
  - 0.0
  - 0.0
  - 0.0
  - 0.0
  - 0.0
  - 0.0
  - 0.0
  - 0.13475060429619673
---
header:
  stamp:
    sec: 175
    nanosec: 303000000
  frame_id: map
pose:
  pose:
    position:
      x: 0.27490820532999094
      y: 2.774792449190998
      z: 0.0
    orientation:
      x: 0.0
      y: 0.0
      z: 0.3500385278845196
      w: 0.9367353035924494
  covariance:
  - 0.1244521771096004
  - -0.03573199253703774
  - 0.0
  - 0.0
  - 0.0
  - 0.0
  - -0.03573199253703774
  - 0.11931776674167072
  - 0.0
  - 0.0
  - 0.0
  - 0.0
  - 0.0
  - 0.0
  - 0.0
  - 0.0
  - 0.0
  - 0.0
  - 0.0
  - 0.0
  - 0.0
  - 0.0
  - 0.0
  - 0.0
  - 0.0
  - 0.0
  - 0.0
  - 0.0
  - 0.0
  - 0.0
  - 0.0
  - 0.0
  - 0.0
  - 0.0
  - 0.0
  - 0.1190583415793652
---
header:
  stamp:
    sec: 175
    nanosec: 503000000
  frame_id: map
pose:
  pose:
    position:
      x: 0.34311507801807617
      y: 2.808180567452676
      z: 0.0
    orientation:
      x: 0.0
      y: 0.0
      z: 0.247971896235517
      w: 0.9687672262609641
  covariance:
  - 0.10353992791415641
  - -0.02644032763387283
  - 0.0
  - 0.0
  - 0.0
  - 0.0
  - -0.02644032763387294
  - 0.09224644646166169
  - 0.0
  - 0.0
  - 0.0
  - 0.0
  - 0.0
  - 0.0
  - 0.0
  - 0.0
  - 0.0
  - 0.0
  - 0.0
  - 0.0
  - 0.0
  - 0.0
  - 0.0
  - 0.0
  - 0.0
  - 0.0
  - 0.0
  - 0.0
  - 0.0
  - 0.0
  - 0.0
  - 0.0
  - 0.0
  - 0.0
  - 0.0
  - 0.09959635973197375
---
header:
  stamp:
    sec: 175
    nanosec: 903000000
  frame_id: map
pose:
  pose:
    position:
      x: 0.4196551690744633
      y: 2.8276750663310826
      z: 0.0
    orientation:
      x: 0.0
      y: 0.0
      z: 0.057183878175216044
      w: 0.998363663239424
  covariance:
  - 0.09248553704710419
  - -0.017307739203183736
  - 0.0
  - 0.0
  - 0.0
  - 0.0
  - -0.017307739203183514
  - 0.08403680400827795
  - 0.0
  - 0.0
  - 0.0
  - 0.0
  - 0.0
  - 0.0
  - 0.0
  - 0.0
  - 0.0
  - 0.0
  - 0.0
  - 0.0
  - 0.0
  - 0.0
  - 0.0
  - 0.0
  - 0.0
  - 0.0
  - 0.0
  - 0.0
  - 0.0
  - 0.0
  - 0.0
  - 0.0
  - 0.0
  - 0.0
  - 0.0
  - 0.09580608060869993
---
header:
  stamp:
    sec: 176
    nanosec: 303000000
  frame_id: map
pose:
  pose:
    position:
      x: 0.4813312140661499
      y: 2.846266578000723
      z: 0.0
    orientation:
      x: 0.0
      y: 0.0
      z: -0.11377666742607838
      w: 0.9935063512375829
  covariance:
  - 0.0979740592261415
  - -0.018455881957506914
  - 0.0
  - 0.0
  - 0.0
  - 0.0
  - -0.018455881957506914
  - 0.061926493792032744
  - 0.0
  - 0.0
  - 0.0
  - 0.0
  - 0.0
  - 0.0
  - 0.0
  - 0.0
  - 0.0
  - 0.0
  - 0.0
  - 0.0
  - 0.0
  - 0.0
  - 0.0
  - 0.0
  - 0.0
  - 0.0
  - 0.0
  - 0.0
  - 0.0
  - 0.0
  - 0.0
  - 0.0
  - 0.0
  - 0.0
  - 0.0
  - 0.08886953961924386
---
header:
  stamp:
    sec: 176
    nanosec: 703000000
  frame_id: map
pose:
  pose:
    position:
      x: 0.5795061130473559
      y: 2.8201763498831025
      z: 0.0
    orientation:
      x: 0.0
      y: 0.0
      z: -0.24915203300159167
      w: 0.9684643847097186
  covariance:
  - 0.07114591715537216
  - -0.010550559206509158
  - 0.0
  - 0.0
  - 0.0
  - 0.0
  - -0.010550559206508936
  - 0.048523403142630706
  - 0.0
  - 0.0
  - 0.0
  - 0.0
  - 0.0
  - 0.0
  - 0.0
  - 0.0
  - 0.0
  - 0.0
  - 0.0
  - 0.0
  - 0.0
  - 0.0
  - 0.0
  - 0.0
  - 0.0
  - 0.0
  - 0.0
  - 0.0
  - 0.0
  - 0.0
  - 0.0
  - 0.0
  - 0.0
  - 0.0
  - 0.0
  - 0.06970430233676683
---
header:
  stamp:
    sec: 177
    nanosec: 303000000
  frame_id: map
pose:
  pose:
    position:
      x: 0.6916210302216843
      y: 2.761997538917366
      z: 0.0
    orientation:
      x: 0.0
      y: 0.0
      z: -0.3519269350265784
      w: 0.9360274741709232
  covariance:
  - 0.06129403202321021
  - -0.011211426425804527
  - 0.0
  - 0.0
  - 0.0
  - 0.0
  - -0.011211426425804527
  - 0.039441718835028894
  - 0.0
  - 0.0
  - 0.0
  - 0.0
  - 0.0
  - 0.0
  - 0.0
  - 0.0
  - 0.0
  - 0.0
  - 0.0
  - 0.0
  - 0.0
  - 0.0
  - 0.0
  - 0.0
  - 0.0
  - 0.0
  - 0.0
  - 0.0
  - 0.0
  - 0.0
  - 0.0
  - 0.0
  - 0.0
  - 0.0
  - 0.0
  - 0.05301356200795746
---
header:
  stamp:
    sec: 178
    nanosec: 903000000
  frame_id: map
pose:
  pose:
    position:
      x: 0.9357554001773424
      y: 2.5080309944858103
      z: 0.0
    orientation:
      x: 0.0
      y: 0.0
      z: -0.4265774494110316
      w: 0.9044510377317164
  covariance:
  - 0.06741799384697089
  - -0.011313161506048885
  - 0.0
  - 0.0
  - 0.0
  - 0.0
  - -0.011313161506048885
  - 0.05153792165658544
  - 0.0
  - 0.0
  - 0.0
  - 0.0
  - 0.0
  - 0.0
  - 0.0
  - 0.0
  - 0.0
  - 0.0
  - 0.0
  - 0.0
  - 0.0
  - 0.0
  - 0.0
  - 0.0
  - 0.0
  - 0.0
  - 0.0
  - 0.0
  - 0.0
  - 0.0
  - 0.0
  - 0.0
  - 0.0
  - 0.0
  - 0.0
  - 0.07580664132501114
---
header:
  stamp:
    sec: 180
    nanosec: 503000000
  frame_id: map
pose:
  pose:
    position:
      x: 1.153774879357923
      y: 2.26331819310187
      z: 0.0
    orientation:
      x: 0.0
      y: 0.0
      z: -0.4436103825600976
      w: 0.896219743413904
  covariance:
  - 0.08536839655331763
  - -0.010103369484405267
  - 0.0
  - 0.0
  - 0.0
  - 0.0
  - -0.010103369484405267
  - 0.06223472461761048
  - 0.0
  - 0.0
  - 0.0
  - 0.0
  - 0.0
  - 0.0
  - 0.0
  - 0.0
  - 0.0
  - 0.0
  - 0.0
  - 0.0
  - 0.0
  - 0.0
  - 0.0
  - 0.0
  - 0.0
  - 0.0
  - 0.0
  - 0.0
  - 0.0
  - 0.0
  - 0.0
  - 0.0
  - 0.0
  - 0.0
  - 0.0
  - 0.09704868388469289
---
header:
  stamp:
    sec: 181
    nanosec: 903000000
  frame_id: map
pose:
  pose:
    position:
      x: 1.353365141412475
      y: 2.007368146134037
      z: 0.0
    orientation:
      x: 0.0
      y: 0.0
      z: -0.46713878626668065
      w: 0.8841840048119466
  covariance:
  - 0.0987804941294359
  - -0.0022005236719051524
  - 0.0
  - 0.0
  - 0.0
  - 0.0
  - -0.0022005236719051524
  - 0.0747199995611334
  - 0.0
  - 0.0
  - 0.0
  - 0.0
  - 0.0
  - 0.0
  - 0.0
  - 0.0
  - 0.0
  - 0.0
  - 0.0
  - 0.0
  - 0.0
  - 0.0
  - 0.0
  - 0.0
  - 0.0
  - 0.0
  - 0.0
  - 0.0
  - 0.0
  - 0.0
  - 0.0
  - 0.0
  - 0.0
  - 0.0
  - 0.0
  - 0.10795969890904818
---
header:
  stamp:
    sec: 183
    nanosec: 303000000
  frame_id: map
pose:
  pose:
    position:
      x: 1.5405910004635153
      y: 1.7638989498656055
      z: 0.0
    orientation:
      x: 0.0
      y: 0.0
      z: -0.420101625099348
      w: 0.907477065599394
  covariance:
  - 0.12481242467192599
  - 0.0027297209535075417
  - 0.0
  - 0.0
  - 0.0
  - 0.0
  - 0.0027297209535075417
  - 0.09276213162636893
  - 0.0
  - 0.0
  - 0.0
  - 0.0
  - 0.0
  - 0.0
  - 0.0
  - 0.0
  - 0.0
  - 0.0
  - 0.0
  - 0.0
  - 0.0
  - 0.0
  - 0.0
  - 0.0
  - 0.0
  - 0.0
  - 0.0
  - 0.0
  - 0.0
  - 0.0
  - 0.0
  - 0.0
  - 0.0
  - 0.0
  - 0.0
  - 0.11427310366173336
---
header:
  stamp:
    sec: 184
    nanosec: 303000000
  frame_id: map
pose:
  pose:
    position:
      x: 1.6807206875834755
      y: 1.620015844346221
      z: 0.0
    orientation:
      x: 0.0
      y: 0.0
      z: -0.33291189774181473
      w: 0.9429579356164004
  covariance:
  - 0.12128459120171131
  - -0.001066023422425122
  - 0.0
  - 0.0
  - 0.0
  - 0.0
  - -0.001066023422425122
  - 0.10457941118546943
  - 0.0
  - 0.0
  - 0.0
  - 0.0
  - 0.0
  - 0.0
  - 0.0
  - 0.0
  - 0.0
  - 0.0
  - 0.0
  - 0.0
  - 0.0
  - 0.0
  - 0.0
  - 0.0
  - 0.0
  - 0.0
  - 0.0
  - 0.0
  - 0.0
  - 0.0
  - 0.0
  - 0.0
  - 0.0
  - 0.0
  - 0.0
  - 0.10197609598176169
---
header:
  stamp:
    sec: 185
    nanosec: 103000000
  frame_id: map
pose:
  pose:
    position:
      x: 1.7869171665753096
      y: 1.5525676850968944
      z: 0.0
    orientation:
      x: 0.0
      y: 0.0
      z: -0.22495117989870156
      w: 0.9743700357986087
  covariance:
  - 0.09947215139438237
  - -0.0041901423972801055
  - 0.0
  - 0.0
  - 0.0
  - 0.0
  - -0.0041901423972801055
  - 0.08768074005675075
  - 0.0
  - 0.0
  - 0.0
  - 0.0
  - 0.0
  - 0.0
  - 0.0
  - 0.0
  - 0.0
  - 0.0
  - 0.0
  - 0.0
  - 0.0
  - 0.0
  - 0.0
  - 0.0
  - 0.0
  - 0.0
  - 0.0
  - 0.0
  - 0.0
  - 0.0
  - 0.0
  - 0.0
  - 0.0
  - 0.0
  - 0.0
  - 0.0820844565088211
---
header:
  stamp:
    sec: 186
    nanosec: 703000000
  frame_id: map
pose:
  pose:
    position:
      x: 2.050126180101337
      y: 1.423883932595292
      z: 0.0
    orientation:
      x: 0.0
      y: 0.0
      z: -0.19826931846594753
      w: 0.9801475793751921
  covariance:
  - 0.10295060807443246
  - -0.00018740606890244038
  - 0.0
  - 0.0
  - 0.0
  - 0.0
  - -0.00018740606890288447
  - 0.07109447979936956
  - 0.0
  - 0.0
  - 0.0
  - 0.0
  - 0.0
  - 0.0
  - 0.0
  - 0.0
  - 0.0
  - 0.0
  - 0.0
  - 0.0
  - 0.0
  - 0.0
  - 0.0
  - 0.0
  - 0.0
  - 0.0
  - 0.0
  - 0.0
  - 0.0
  - 0.0
  - 0.0
  - 0.0
  - 0.0
  - 0.0
  - 0.0
  - 0.08147428572516767
---
header:
  stamp:
    sec: 188
    nanosec: 103000000
  frame_id: map
pose:
  pose:
    position:
      x: 2.318869924489994
      y: 1.3351590314162698
      z: 0.0
    orientation:
      x: 0.0
      y: 0.0
      z: -0.1739478871789383
      w: 0.9847548591126541
  covariance:
  - 0.10571860741199224
  - 0.00771178387256688
  - 0.0
  - 0.0
  - 0.0
  - 0.0
  - 0.00771178387256688
  - 0.07998307595022913
  - 0.0
  - 0.0
  - 0.0
  - 0.0
  - 0.0
  - 0.0
  - 0.0
  - 0.0
  - 0.0
  - 0.0
  - 0.0
  - 0.0
  - 0.0
  - 0.0
  - 0.0
  - 0.0
  - 0.0
  - 0.0
  - 0.0
  - 0.0
  - 0.0
  - 0.0
  - 0.0
  - 0.0
  - 0.0
  - 0.0
  - 0.0
  - 0.09276953421930988
---
header:
  stamp:
    sec: 189
    nanosec: 503000000
  frame_id: map
pose:
  pose:
    position:
      x: 2.604577238870798
      y: 1.2403029805135428
      z: 0.0
    orientation:
      x: 0.0
      y: 0.0
      z: -0.16840409758257086
      w: 0.9857180428080842
  covariance:
  - 0.10493551693944347
  - 0.009112169517744295
  - 0.0
  - 0.0
  - 0.0
  - 0.0
  - 0.009112169517744295
  - 0.06819436693926884
  - 0.0
  - 0.0
  - 0.0
  - 0.0
  - 0.0
  - 0.0
  - 0.0
  - 0.0
  - 0.0
  - 0.0
  - 0.0
  - 0.0
  - 0.0
  - 0.0
  - 0.0
  - 0.0
  - 0.0
  - 0.0
  - 0.0
  - 0.0
  - 0.0
  - 0.0
  - 0.0
  - 0.0
  - 0.0
  - 0.0
  - 0.0
  - 0.09096373438966385
---
header:
  stamp:
    sec: 190
    nanosec: 903000000
  frame_id: map
pose:
  pose:
    position:
      x: 2.893693955403989
      y: 1.1446299732183136
      z: 0.0
    orientation:
      x: 0.0
      y: 0.0
      z: -0.16960320355166167
      w: 0.9855124318571601
  covariance:
  - 0.1050560787764212
  - 0.012518836666367328
  - 0.0
  - 0.0
  - 0.0
  - 0.0
  - 0.012518836666367328
  - 0.07593673788576849
  - 0.0
  - 0.0
  - 0.0
  - 0.0
  - 0.0
  - 0.0
  - 0.0
  - 0.0
  - 0.0
  - 0.0
  - 0.0
  - 0.0
  - 0.0
  - 0.0
  - 0.0
  - 0.0
  - 0.0
  - 0.0
  - 0.0
  - 0.0
  - 0.0
  - 0.0
  - 0.0
  - 0.0
  - 0.0
  - 0.0
  - 0.0
  - 0.09963459604242658
---
header:
  stamp:
    sec: 192
    nanosec: 303000000
  frame_id: map
pose:
  pose:
    position:
      x: 3.1741728182708395
      y: 1.060811882256223
      z: 0.0
    orientation:
      x: 0.0
      y: 0.0
      z: -0.1632571682583273
      w: 0.9865835479128324
  covariance:
  - 0.10781630773705153
  - 0.012963132257227006
  - 0.0
  - 0.0
  - 0.0
  - 0.0
  - 0.012963132257227006
  - 0.09008742222975541
  - 0.0
  - 0.0
  - 0.0
  - 0.0
  - 0.0
  - 0.0
  - 0.0
  - 0.0
  - 0.0
  - 0.0
  - 0.0
  - 0.0
  - 0.0
  - 0.0
  - 0.0
  - 0.0
  - 0.0
  - 0.0
  - 0.0
  - 0.0
  - 0.0
  - 0.0
  - 0.0
  - 0.0
  - 0.0
  - 0.0
  - 0.0
  - 0.1019963581216199
---
header:
  stamp:
    sec: 193
    nanosec: 703000000
  frame_id: map
pose:
  pose:
    position:
      x: 3.4452979579999723
      y: 0.9527688241383565
      z: 0.0
    orientation:
      x: 0.0
      y: 0.0
      z: -0.19386103230466065
      w: 0.9810290006690787
  covariance:
  - 0.12073313089707227
  - 0.02225356761878361
  - 0.0
  - 0.0
  - 0.0
  - 0.0
  - 0.02225356761878361
  - 0.12284162117736575
  - 0.0
  - 0.0
  - 0.0
  - 0.0
  - 0.0
  - 0.0
  - 0.0
  - 0.0
  - 0.0
  - 0.0
  - 0.0
  - 0.0
  - 0.0
  - 0.0
  - 0.0
  - 0.0
  - 0.0
  - 0.0
  - 0.0
  - 0.0
  - 0.0
  - 0.0
  - 0.0
  - 0.0
  - 0.0
  - 0.0
  - 0.0
  - 0.10789610203444648
---
header:
  stamp:
    sec: 195
    nanosec: 103000000
  frame_id: map
pose:
  pose:
    position:
      x: 3.7159310839218804
      y: 0.8457518538911615
      z: 0.0
    orientation:
      x: 0.0
      y: 0.0
      z: -0.18085998432054085
      w: 0.9835088540890589
  covariance:
  - 0.13435290907915665
  - 0.028123053082544036
  - 0.0
  - 0.0
  - 0.0
  - 0.0
  - 0.028123053082544036
  - 0.14195585586261195
  - 0.0
  - 0.0
  - 0.0
  - 0.0
  - 0.0
  - 0.0
  - 0.0
  - 0.0
  - 0.0
  - 0.0
  - 0.0
  - 0.0
  - 0.0
  - 0.0
  - 0.0
  - 0.0
  - 0.0
  - 0.0
  - 0.0
  - 0.0
  - 0.0
  - 0.0
  - 0.0
  - 0.0
  - 0.0
  - 0.0
  - 0.0
  - 0.11559180634655718
---
header:
  stamp:
    sec: 197
    nanosec: 103000000
  frame_id: map
pose:
  pose:
    position:
      x: 3.965370117116946
      y: 0.7250799504048944
      z: 0.0
    orientation:
      x: 0.0
      y: 0.0
      z: -0.26343445765370743
      w: 0.9646772965716033
  covariance:
  - 0.14541649308245397
  - 0.035906526574951414
  - 0.0
  - 0.0
  - 0.0
  - 0.0
  - 0.035906526574951414
  - 0.1683637523695185
  - 0.0
  - 0.0
  - 0.0
  - 0.0
  - 0.0
  - 0.0
  - 0.0
  - 0.0
  - 0.0
  - 0.0
  - 0.0
  - 0.0
  - 0.0
  - 0.0
  - 0.0
  - 0.0
  - 0.0
  - 0.0
  - 0.0
  - 0.0
  - 0.0
  - 0.0
  - 0.0
  - 0.0
  - 0.0
  - 0.0
  - 0.0
  - 0.12414851345064151
---
header:
  stamp:
    sec: 198
    nanosec: 503000000
  frame_id: map
pose:
  pose:
    position:
      x: 4.199583161417372
      y: 0.5496489327866818
      z: 0.0
    orientation:
      x: 0.0
      y: 0.0
      z: -0.3626424862455157
      w: 0.9319283380011958
  covariance:
  - 0.16054513794006908
  - 0.04087884908929196
  - 0.0
  - 0.0
  - 0.0
  - 0.0
  - 0.040878849089291514
  - 0.21383055749381918
  - 0.0
  - 0.0
  - 0.0
  - 0.0
  - 0.0
  - 0.0
  - 0.0
  - 0.0
  - 0.0
  - 0.0
  - 0.0
  - 0.0
  - 0.0
  - 0.0
  - 0.0
  - 0.0
  - 0.0
  - 0.0
  - 0.0
  - 0.0
  - 0.0
  - 0.0
  - 0.0
  - 0.0
  - 0.0
  - 0.0
  - 0.0
  - 0.13835644310013973
---
header:
  stamp:
    sec: 200
    nanosec: 103000000
  frame_id: map
pose:
  pose:
    position:
      x: 4.414662479936928
      y: 0.3364961844754912
      z: 0.0
    orientation:
      x: 0.0
      y: 0.0
      z: -0.39317469135554944
      w: 0.9194637905200337
  covariance:
  - 0.18110713870023432
  - 0.05307776614868698
  - 0.0
  - 0.0
  - 0.0
  - 0.0
  - 0.05307776614868698
  - 0.25313781144210545
  - 0.0
  - 0.0
  - 0.0
  - 0.0
  - 0.0
  - 0.0
  - 0.0
  - 0.0
  - 0.0
  - 0.0
  - 0.0
  - 0.0
  - 0.0
  - 0.0
  - 0.0
  - 0.0
  - 0.0
  - 0.0
  - 0.0
  - 0.0
  - 0.0
  - 0.0
  - 0.0
  - 0.0
  - 0.0
  - 0.0
  - 0.0
  - 0.16201390660910353
---
header:
  stamp:
    sec: 201
    nanosec: 703000000
  frame_id: map
pose:
  pose:
    position:
      x: 4.641245662576108
      y: 0.09566571498972493
      z: 0.0
    orientation:
      x: 0.0
      y: 0.0
      z: -0.3936643023591107
      w: 0.9192542722490413
  covariance:
  - 0.2199707934507451
  - 0.060820750126829914
  - 0.0
  - 0.0
  - 0.0
  - 0.0
  - 0.060820750126829914
  - 0.27291059748876473
  - 0.0
  - 0.0
  - 0.0
  - 0.0
  - 0.0
  - 0.0
  - 0.0
  - 0.0
  - 0.0
  - 0.0
  - 0.0
  - 0.0
  - 0.0
  - 0.0
  - 0.0
  - 0.0
  - 0.0
  - 0.0
  - 0.0
  - 0.0
  - 0.0
  - 0.0
  - 0.0
  - 0.0
  - 0.0
  - 0.0
  - 0.0
  - 0.18054950476056164
---
header:
  stamp:
    sec: 203
    nanosec: 503000000
  frame_id: map
pose:
  pose:
    position:
      x: 4.876645230221427
      y: -0.11960216273290152
      z: 0.0
    orientation:
      x: 0.0
      y: 0.0
      z: -0.38426479769719984
      w: 0.9232229228364783
  covariance:
  - 0.24597596288703016
  - 0.08119507441985718
  - 0.0
  - 0.0
  - 0.0
  - 0.0
  - 0.0811950744198573
  - 0.3278840292087123
  - 0.0
  - 0.0
  - 0.0
  - 0.0
  - 0.0
  - 0.0
  - 0.0
  - 0.0
  - 0.0
  - 0.0
  - 0.0
  - 0.0
  - 0.0
  - 0.0
  - 0.0
  - 0.0
  - 0.0
  - 0.0
  - 0.0
  - 0.0
  - 0.0
  - 0.0
  - 0.0
  - 0.0
  - 0.0
  - 0.0
  - 0.0
  - 0.18247549916015102
---
header:
  stamp:
    sec: 205
    nanosec: 703000000
  frame_id: map
pose:
  pose:
    position:
      x: 5.158985121401848
      y: -0.3168340456998691
      z: 0.0
    orientation:
      x: 0.0
      y: 0.0
      z: -0.35370208654897806
      w: 0.9353581313972201
  covariance:
  - 0.282050812855136
  - 0.1099508469128736
  - 0.0
  - 0.0
  - 0.0
  - 0.0
  - 0.1099508469128736
  - 0.38387470536715307
  - 0.0
  - 0.0
  - 0.0
  - 0.0
  - 0.0
  - 0.0
  - 0.0
  - 0.0
  - 0.0
  - 0.0
  - 0.0
  - 0.0
  - 0.0
  - 0.0
  - 0.0
  - 0.0
  - 0.0
  - 0.0
  - 0.0
  - 0.0
  - 0.0
  - 0.0
  - 0.0
  - 0.0
  - 0.0
  - 0.0
  - 0.0
  - 0.18114558236224562
---
header:
  stamp:
    sec: 207
    nanosec: 303000000
  frame_id: map
pose:
  pose:
    position:
      x: 5.399724303127568
      y: -0.5292312974023915
      z: 0.0
    orientation:
      x: 0.0
      y: 0.0
      z: -0.39904126667804585
      w: 0.916932967826973
  covariance:
  - 0.3058982975753466
  - 0.14223590488379623
  - 0.0
  - 0.0
  - 0.0
  - 0.0
  - 0.14223590488379623
  - 0.46839094735159803
  - 0.0
  - 0.0
  - 0.0
  - 0.0
  - 0.0
  - 0.0
  - 0.0
  - 0.0
  - 0.0
  - 0.0
  - 0.0
  - 0.0
  - 0.0
  - 0.0
  - 0.0
  - 0.0
  - 0.0
  - 0.0
  - 0.0
  - 0.0
  - 0.0
  - 0.0
  - 0.0
  - 0.0
  - 0.0
  - 0.0
  - 0.0
  - 0.19495873523043328
---
header:
  stamp:
    sec: 208
    nanosec: 903000000
  frame_id: map
pose:
  pose:
    position:
      x: 5.650531760572862
      y: -0.7678480753659426
      z: 0.0
    orientation:
      x: 0.0
      y: 0.0
      z: -0.4033439975234669
      w: 0.9150484247632961
  covariance:
  - 0.37066420026013347
  - 0.19399579547171353
  - 0.0
  - 0.0
  - 0.0
  - 0.0
  - 0.19399579547171353
  - 0.5589127541272431
  - 0.0
  - 0.0
  - 0.0
  - 0.0
  - 0.0
  - 0.0
  - 0.0
  - 0.0
  - 0.0
  - 0.0
  - 0.0
  - 0.0
  - 0.0
  - 0.0
  - 0.0
  - 0.0
  - 0.0
  - 0.0
  - 0.0
  - 0.0
  - 0.0
  - 0.0
  - 0.0
  - 0.0
  - 0.0
  - 0.0
  - 0.0
  - 0.23295285981188107
---
header:
  stamp:
    sec: 211
    nanosec: 103000000
  frame_id: map
pose:
  pose:
    position:
      x: 5.8746575606970675
      y: -0.9823829533820164
      z: 0.0
    orientation:
      x: 0.0
      y: 0.0
      z: -0.4478997968661538
      w: 0.89408376115846
  covariance:
  - 0.4151867101518718
  - 0.23115709738024304
  - 0.0
  - 0.0
  - 0.0
  - 0.0
  - 0.23115709738024126
  - 0.6988249179330529
  - 0.0
  - 0.0
  - 0.0
  - 0.0
  - 0.0
  - 0.0
  - 0.0
  - 0.0
  - 0.0
  - 0.0
  - 0.0
  - 0.0
  - 0.0
  - 0.0
  - 0.0
  - 0.0
  - 0.0
  - 0.0
  - 0.0
  - 0.0
  - 0.0
  - 0.0
  - 0.0
  - 0.0
  - 0.0
  - 0.0
  - 0.0
  - 0.2505776858121931
---
header:
  stamp:
    sec: 212
    nanosec: 503000000
  frame_id: map
pose:
  pose:
    position:
      x: 6.066398387457042
      y: -1.2191760169461208
      z: 0.0
    orientation:
      x: 0.0
      y: 0.0
      z: -0.5068590621814326
      w: 0.862028938658418
  covariance:
  - 0.42425838757917234
  - 0.25123496086991004
  - 0.0
  - 0.0
  - 0.0
  - 0.0
  - 0.25123496086991004
  - 0.7850758080876403
  - 0.0
  - 0.0
  - 0.0
  - 0.0
  - 0.0
  - 0.0
  - 0.0
  - 0.0
  - 0.0
  - 0.0
  - 0.0
  - 0.0
  - 0.0
  - 0.0
  - 0.0
  - 0.0
  - 0.0
  - 0.0
  - 0.0
  - 0.0
  - 0.0
  - 0.0
  - 0.0
  - 0.0
  - 0.0
  - 0.0
  - 0.0
  - 0.2563214979479309
---
header:
  stamp:
    sec: 213
    nanosec: 903000000
  frame_id: map
pose:
  pose:
    position:
      x: 6.216701401368036
      y: -1.5259127142743933
      z: 0.0
    orientation:
      x: 0.0
      y: 0.0
      z: -0.5627508684208699
      w: 0.826626554189712
  covariance:
  - 0.4083880637367301
  - 0.2635183979104223
  - 0.0
  - 0.0
  - 0.0
  - 0.0
  - 0.26351839791042053
  - 0.8848155739189729
  - 0.0
  - 0.0
  - 0.0
  - 0.0
  - 0.0
  - 0.0
  - 0.0
  - 0.0
  - 0.0
  - 0.0
  - 0.0
  - 0.0
  - 0.0
  - 0.0
  - 0.0
  - 0.0
  - 0.0
  - 0.0
  - 0.0
  - 0.0
  - 0.0
  - 0.0
  - 0.0
  - 0.0
  - 0.0
  - 0.0
  - 0.0
  - 0.2555765038350271
---
header:
  stamp:
    sec: 215
    nanosec: 703000000
  frame_id: map
pose:
  pose:
    position:
      x: 6.300776750802115
      y: -1.8393382044674096
      z: 0.0
    orientation:
      x: 0.0
      y: 0.0
      z: -0.6617654157741173
      w: 0.7497109672969375
  covariance:
  - 0.41735872885126923
  - 0.26687696953130846
  - 0.0
  - 0.0
  - 0.0
  - 0.0
  - 0.26687696953130846
  - 0.8631053238018378
  - 0.0
  - 0.0
  - 0.0
  - 0.0
  - 0.0
  - 0.0
  - 0.0
  - 0.0
  - 0.0
  - 0.0
  - 0.0
  - 0.0
  - 0.0
  - 0.0
  - 0.0
  - 0.0
  - 0.0
  - 0.0
  - 0.0
  - 0.0
  - 0.0
  - 0.0
  - 0.0
  - 0.0
  - 0.0
  - 0.0
  - 0.0
  - 0.23794654422500833
---
header:
  stamp:
    sec: 216
    nanosec: 503000000
  frame_id: map
pose:
  pose:
    position:
      x: 6.274035023235796
      y: -2.133367798668915
      z: 0.0
    orientation:
      x: 0.0
      y: 0.0
      z: -0.7550779976739959
      w: 0.6556349727009909
  covariance:
  - 0.3753382664672671
  - 0.20577195006895366
  - 0.0
  - 0.0
  - 0.0
  - 0.0
  - 0.20577195006895188
  - 0.684687119352672
  - 0.0
  - 0.0
  - 0.0
  - 0.0
  - 0.0
  - 0.0
  - 0.0
  - 0.0
  - 0.0
  - 0.0
  - 0.0
  - 0.0
  - 0.0
  - 0.0
  - 0.0
  - 0.0
  - 0.0
  - 0.0
  - 0.0
  - 0.0
  - 0.0
  - 0.0
  - 0.0
  - 0.0
  - 0.0
  - 0.0
  - 0.0
  - 0.214432852673753
---
header:
  stamp:
    sec: 217
    nanosec: 903000000
  frame_id: map
pose:
  pose:
    position:
      x: 6.247646270271294
      y: -2.448305505837351
      z: 0.0
    orientation:
      x: 0.0
      y: 0.0
      z: -0.7969443019817344
      w: 0.6040527953240893
  covariance:
  - 0.3853424030250565
  - 0.20855087909332148
  - 0.0
  - 0.0
  - 0.0
  - 0.0
  - 0.20855087909332148
  - 0.6109172313673614
  - 0.0
  - 0.0
  - 0.0
  - 0.0
  - 0.0
  - 0.0
  - 0.0
  - 0.0
  - 0.0
  - 0.0
  - 0.0
  - 0.0
  - 0.0
  - 0.0
  - 0.0
  - 0.0
  - 0.0
  - 0.0
  - 0.0
  - 0.0
  - 0.0
  - 0.0
  - 0.0
  - 0.0
  - 0.0
  - 0.0
  - 0.0
  - 0.2292007665083219
---
header:
  stamp:
    sec: 219
    nanosec: 303000000
  frame_id: map
pose:
  pose:
    position:
      x: 6.14906710161649
      y: -2.7637348755191717
      z: 0.0
    orientation:
      x: 0.0
      y: 0.0
      z: -0.8498388883674273
      w: 0.527042563573774
  covariance:
  - 0.4192687540109503
  - 0.199698604828221
  - 0.0
  - 0.0
  - 0.0
  - 0.0
  - 0.199698604828221
  - 0.5543102446410639
  - 0.0
  - 0.0
  - 0.0
  - 0.0
  - 0.0
  - 0.0
  - 0.0
  - 0.0
  - 0.0
  - 0.0
  - 0.0
  - 0.0
  - 0.0
  - 0.0
  - 0.0
  - 0.0
  - 0.0
  - 0.0
  - 0.0
  - 0.0
  - 0.0
  - 0.0
  - 0.0
  - 0.0
  - 0.0
  - 0.0
  - 0.0
  - 0.25155050333322754
---
header:
  stamp:
    sec: 220
    nanosec: 703000000
  frame_id: map
pose:
  pose:
    position:
      x: 6.0773263678911436
      y: -2.979275724533397
      z: 0.0
    orientation:
      x: 0.0
      y: 0.0
      z: -0.9051032219716123
      w: 0.42519190676282437
  covariance:
  - 0.3677620037429534
  - 0.1472852350066276
  - 0.0
  - 0.0
  - 0.0
  - 0.0
  - 0.1472852350066276
  - 0.48513199247134686
  - 0.0
  - 0.0
  - 0.0
  - 0.0
  - 0.0
  - 0.0
  - 0.0
  - 0.0
  - 0.0
  - 0.0
  - 0.0
  - 0.0
  - 0.0
  - 0.0
  - 0.0
  - 0.0
  - 0.0
  - 0.0
  - 0.0
  - 0.0
  - 0.0
  - 0.0
  - 0.0
  - 0.0
  - 0.0
  - 0.0
  - 0.0
  - 0.2306518476027449
---
header:
  stamp:
    sec: 221
    nanosec: 303000000
  frame_id: map
pose:
  pose:
    position:
      x: 6.061323894287701
      y: -3.032754610712459
      z: 0.0
    orientation:
      x: 0.0
      y: 0.0
      z: -0.9469038212088311
      w: 0.3215169565981147
  covariance:
  - 0.3103290080434107
  - 0.133305648876469
  - 0.0
  - 0.0
  - 0.0
  - 0.0
  - 0.133305648876469
  - 0.4139163360330578
  - 0.0
  - 0.0
  - 0.0
  - 0.0
  - 0.0
  - 0.0
  - 0.0
  - 0.0
  - 0.0
  - 0.0
  - 0.0
  - 0.0
  - 0.0
  - 0.0
  - 0.0
  - 0.0
  - 0.0
  - 0.0
  - 0.0
  - 0.0
  - 0.0
  - 0.0
  - 0.0
  - 0.0
  - 0.0
  - 0.0
  - 0.0
  - 0.2082561425783161
---
header:
  stamp:
    sec: 222
    nanosec: 303000000
  frame_id: map
pose:
  pose:
    position:
      x: 5.958574629916698
      y: -3.1359387471556914
      z: 0.0
    orientation:
      x: 0.0
      y: 0.0
      z: -0.9858072785426821
      w: 0.16788093868057416
  covariance:
  - 0.28454533064491017
  - 0.11311884585941456
  - 0.0
  - 0.0
  - 0.0
  - 0.0
  - 0.11311884585941101
  - 0.34685367330972205
  - 0.0
  - 0.0
  - 0.0
  - 0.0
  - 0.0
  - 0.0
  - 0.0
  - 0.0
  - 0.0
  - 0.0
  - 0.0
  - 0.0
  - 0.0
  - 0.0
  - 0.0
  - 0.0
  - 0.0
  - 0.0
  - 0.0
  - 0.0
  - 0.0
  - 0.0
  - 0.0
  - 0.0
  - 0.0
  - 0.0
  - 0.0
  - 0.19423940108509707
---
header:
  stamp:
    sec: 222
    nanosec: 903000000
  frame_id: map
pose:
  pose:
    position:
      x: 5.848111002953305
      y: -3.179310462878127
      z: 0.0
    orientation:
      x: 0.0
      y: 0.0
      z: -0.9978018209540699
      w: 0.06626859060476796
  covariance:
  - 0.2890699178594147
  - 0.08253400954972179
  - 0.0
  - 0.0
  - 0.0
  - 0.0
  - 0.08253400954972179
  - 0.2712776568181585
  - 0.0
  - 0.0
  - 0.0
  - 0.0
  - 0.0
  - 0.0
  - 0.0
  - 0.0
  - 0.0
  - 0.0
  - 0.0
  - 0.0
  - 0.0
  - 0.0
  - 0.0
  - 0.0
  - 0.0
  - 0.0
  - 0.0
  - 0.0
  - 0.0
  - 0.0
  - 0.0
  - 0.0
  - 0.0
  - 0.0
  - 0.0
  - 0.18652265622182465
---
header:
  stamp:
    sec: 224
    nanosec: 103000000
  frame_id: map
pose:
  pose:
    position:
      x: 5.605329109524373
      y: -3.19647433760834
      z: 0.0
    orientation:
      x: 0.0
      y: 0.0
      z: -0.9999532910819782
      w: 0.009665177407613558
  covariance:
  - 0.32756090515524505
  - 0.09439053455049518
  - 0.0
  - 0.0
  - 0.0
  - 0.0
  - 0.09439053455049518
  - 0.29918015085977245
  - 0.0
  - 0.0
  - 0.0
  - 0.0
  - 0.0
  - 0.0
  - 0.0
  - 0.0
  - 0.0
  - 0.0
  - 0.0
  - 0.0
  - 0.0
  - 0.0
  - 0.0
  - 0.0
  - 0.0
  - 0.0
  - 0.0
  - 0.0
  - 0.0
  - 0.0
  - 0.0
  - 0.0
  - 0.0
  - 0.0
  - 0.0
  - 0.19822244174017312
---
header:
  stamp:
    sec: 225
    nanosec: 303000000
  frame_id: map
pose:
  pose:
    position:
      x: 5.339886193498576
      y: -3.2084185044169367
      z: 0.0
    orientation:
      x: 0.0
      y: 0.0
      z: -0.9998451048635623
      w: 0.01760017841875745
  covariance:
  - 0.35761498503186573
  - 0.032915119612379584
  - 0.0
  - 0.0
  - 0.0
  - 0.0
  - 0.032915119612379584
  - 0.23810306161753658
  - 0.0
  - 0.0
  - 0.0
  - 0.0
  - 0.0
  - 0.0
  - 0.0
  - 0.0
  - 0.0
  - 0.0
  - 0.0
  - 0.0
  - 0.0
  - 0.0
  - 0.0
  - 0.0
  - 0.0
  - 0.0
  - 0.0
  - 0.0
  - 0.0
  - 0.0
  - 0.0
  - 0.0
  - 0.0
  - 0.0
  - 0.0
  - 0.19437650851491864
---
header:
  stamp:
    sec: 226
    nanosec: 503000000
  frame_id: map
pose:
  pose:
    position:
      x: 5.069835921843563
      y: -3.172400450715971
      z: 0.0
    orientation:
      x: 0.0
      y: 0.0
      z: -0.9999121797831302
      w: 0.013252649597314965
  covariance:
  - 0.3949637236406538
  - 0.01783171264828809
  - 0.0
  - 0.0
  - 0.0
  - 0.0
  - 0.01783171264828809
  - 0.224993739153744
  - 0.0
  - 0.0
  - 0.0
  - 0.0
  - 0.0
  - 0.0
  - 0.0
  - 0.0
  - 0.0
  - 0.0
  - 0.0
  - 0.0
  - 0.0
  - 0.0
  - 0.0
  - 0.0
  - 0.0
  - 0.0
  - 0.0
  - 0.0
  - 0.0
  - 0.0
  - 0.0
  - 0.0
  - 0.0
  - 0.0
  - 0.0
  - 0.18317391805626768
---
header:
  stamp:
    sec: 227
    nanosec: 703000000
  frame_id: map
pose:
  pose:
    position:
      x: 4.79490228064721
      y: -3.1824379652838926
      z: 0.0
    orientation:
      x: 0.0
      y: 0.0
      z: -0.996010456357401
      w: 0.08923660026425058
  covariance:
  - 0.49496417393406134
  - -0.0030779417042960944
  - 0.0
  - 0.0
  - 0.0
  - 0.0
  - -0.0030779417042960944
  - 0.2277626718393524
  - 0.0
  - 0.0
  - 0.0
  - 0.0
  - 0.0
  - 0.0
  - 0.0
  - 0.0
  - 0.0
  - 0.0
  - 0.0
  - 0.0
  - 0.0
  - 0.0
  - 0.0
  - 0.0
  - 0.0
  - 0.0
  - 0.0
  - 0.0
  - 0.0
  - 0.0
  - 0.0
  - 0.0
  - 0.0
  - 0.0
  - 0.0
  - 0.1903202162069316
---
header:
  stamp:
    sec: 228
    nanosec: 903000000
  frame_id: map
pose:
  pose:
    position:
      x: 4.507726945242222
      y: -3.233113490355171
      z: 0.0
    orientation:
      x: 0.0
      y: 0.0
      z: -0.9868933834168954
      w: 0.1613736340544912
  covariance:
  - 0.5353897312562204
  - -0.0159387406784397
  - 0.0
  - 0.0
  - 0.0
  - 0.0
  - -0.0159387406784397
  - 0.19167978435051047
  - 0.0
  - 0.0
  - 0.0
  - 0.0
  - 0.0
  - 0.0
  - 0.0
  - 0.0
  - 0.0
  - 0.0
  - 0.0
  - 0.0
  - 0.0
  - 0.0
  - 0.0
  - 0.0
  - 0.0
  - 0.0
  - 0.0
  - 0.0
  - 0.0
  - 0.0
  - 0.0
  - 0.0
  - 0.0
  - 0.0
  - 0.0
  - 0.1734995000463595
---
header:
  stamp:
    sec: 230
    nanosec: 903000000
  frame_id: map
pose:
  pose:
    position:
      x: 4.182709769473682
      y: -3.3231229924064167
      z: 0.0
    orientation:
      x: 0.0
      y: 0.0
      z: -0.9896544317434977
      w: 0.14347161994783042
  covariance:
  - 0.6230119224027497
  - -0.045704426075419136
  - 0.0
  - 0.0
  - 0.0
  - 0.0
  - -0.045704426075419136
  - 0.1689046710134381
  - 0.0
  - 0.0
  - 0.0
  - 0.0
  - 0.0
  - 0.0
  - 0.0
  - 0.0
  - 0.0
  - 0.0
  - 0.0
  - 0.0
  - 0.0
  - 0.0
  - 0.0
  - 0.0
  - 0.0
  - 0.0
  - 0.0
  - 0.0
  - 0.0
  - 0.0
  - 0.0
  - 0.0
  - 0.0
  - 0.0
  - 0.0
  - 0.17735839095219075
---
header:
  stamp:
    sec: 232
    nanosec: 103000000
  frame_id: map
pose:
  pose:
    position:
      x: 3.8962388811319975
      y: -3.342755235464971
      z: 0.0
    orientation:
      x: 0.0
      y: 0.0
      z: -0.9985954567843238
      w: 0.05298220163137475
  covariance:
  - 0.7553586205650902
  - -0.04510362793313938
  - 0.0
  - 0.0
  - 0.0
  - 0.0
  - -0.04510362793313938
  - 0.14242495737301653
  - 0.0
  - 0.0
  - 0.0
  - 0.0
  - 0.0
  - 0.0
  - 0.0
  - 0.0
  - 0.0
  - 0.0
  - 0.0
  - 0.0
  - 0.0
  - 0.0
  - 0.0
  - 0.0
  - 0.0
  - 0.0
  - 0.0
  - 0.0
  - 0.0
  - 0.0
  - 0.0
  - 0.0
  - 0.0
  - 0.0
  - 0.0
  - 0.18529617044263463
---
header:
  stamp:
    sec: 233
    nanosec: 303000000
  frame_id: map
pose:
  pose:
    position:
      x: 3.6007654124600443
      y: -3.361913752038457
      z: 0.0
    orientation:
      x: 0.0
      y: 0.0
      z: -0.9988025784013516
      w: 0.04892248336718045
  covariance:
  - 0.8298623022422635
  - -0.08330085327390968
  - 0.0
  - 0.0
  - 0.0
  - 0.0
  - -0.08330085327390968
  - 0.12885197247032742
  - 0.0
  - 0.0
  - 0.0
  - 0.0
  - 0.0
  - 0.0
  - 0.0
  - 0.0
  - 0.0
  - 0.0
  - 0.0
  - 0.0
  - 0.0
  - 0.0
  - 0.0
  - 0.0
  - 0.0
  - 0.0
  - 0.0
  - 0.0
  - 0.0
  - 0.0
  - 0.0
  - 0.0
  - 0.0
  - 0.0
  - 0.0
  - 0.18573012555656596
---
header:
  stamp:
    sec: 234
    nanosec: 503000000
  frame_id: map
pose:
  pose:
    position:
      x: 3.288585110418998
      y: -3.389260307765306
      z: 0.0
    orientation:
      x: 0.0
      y: 0.0
      z: -0.9938588042743454
      w: 0.11065566938195512
  covariance:
  - 0.9175436917435249
  - -0.10306586297242504
  - 0.0
  - 0.0
  - 0.0
  - 0.0
  - -0.10306586297242326
  - 0.1321392847053371
  - 0.0
  - 0.0
  - 0.0
  - 0.0
  - 0.0
  - 0.0
  - 0.0
  - 0.0
  - 0.0
  - 0.0
  - 0.0
  - 0.0
  - 0.0
  - 0.0
  - 0.0
  - 0.0
  - 0.0
  - 0.0
  - 0.0
  - 0.0
  - 0.0
  - 0.0
  - 0.0
  - 0.0
  - 0.0
  - 0.0
  - 0.0
  - 0.19246395807096922
---
header:
  stamp:
    sec: 235
    nanosec: 903000000
  frame_id: map
pose:
  pose:
    position:
      x: 3.003998929103377
      y: -3.457060329183706
      z: 0.0
    orientation:
      x: 0.0
      y: 0.0
      z: -0.9856797812981143
      w: 0.1686279002422241
  covariance:
  - 1.096283188819557
  - -0.14927139565856073
  - 0.0
  - 0.0
  - 0.0
  - 0.0
  - -0.14927139565856073
  - 0.15303461487313896
  - 0.0
  - 0.0
  - 0.0
  - 0.0
  - 0.0
  - 0.0
  - 0.0
  - 0.0
  - 0.0
  - 0.0
  - 0.0
  - 0.0
  - 0.0
  - 0.0
  - 0.0
  - 0.0
  - 0.0
  - 0.0
  - 0.0
  - 0.0
  - 0.0
  - 0.0
  - 0.0
  - 0.0
  - 0.0
  - 0.0
  - 0.0
  - 0.2104709156164159
---
header:
  stamp:
    sec: 237
    nanosec: 303000000
  frame_id: map
pose:
  pose:
    position:
      x: 2.475987839528291
      y: -3.484226005292114
      z: 0.0
    orientation:
      x: 0.0
      y: 0.0
      z: -0.9950080643517532
      w: 0.09979454832292922
  covariance:
  - 1.174772605022702
  - -0.17084082972085213
  - 0.0
  - 0.0
  - 0.0
  - 0.0
  - -0.17084082972085213
  - 0.1694677937589386
  - 0.0
  - 0.0
  - 0.0
  - 0.0
  - 0.0
  - 0.0
  - 0.0
  - 0.0
  - 0.0
  - 0.0
  - 0.0
  - 0.0
  - 0.0
  - 0.0
  - 0.0
  - 0.0
  - 0.0
  - 0.0
  - 0.0
  - 0.0
  - 0.0
  - 0.0
  - 0.0
  - 0.0
  - 0.0
  - 0.0
  - 0.0
  - 0.21805959041302359
---
header:
  stamp:
    sec: 238
    nanosec: 703000000
  frame_id: map
pose:
  pose:
    position:
      x: 2.178717078622019
      y: -3.5507257773988368
      z: 0.0
    orientation:
      x: 0.0
      y: 0.0
      z: -0.981939295965484
      w: 0.1891962447798834
  covariance:
  - 1.0914724606047024
  - -0.18740845119764238
  - 0.0
  - 0.0
  - 0.0
  - 0.0
  - -0.18740845119764238
  - 0.18809232685774724
  - 0.0
  - 0.0
  - 0.0
  - 0.0
  - 0.0
  - 0.0
  - 0.0
  - 0.0
  - 0.0
  - 0.0
  - 0.0
  - 0.0
  - 0.0
  - 0.0
  - 0.0
  - 0.0
  - 0.0
  - 0.0
  - 0.0
  - 0.0
  - 0.0
  - 0.0
  - 0.0
  - 0.0
  - 0.0
  - 0.0
  - 0.0
  - 0.19979313375237975
---
header:
  stamp:
    sec: 240
    nanosec: 103000000
  frame_id: map
pose:
  pose:
    position:
      x: 1.8981922616401716
      y: -3.6519724652410055
      z: 0.0
    orientation:
      x: 0.0
      y: 0.0
      z: -0.9811878591628523
      w: 0.1930553936864201
  covariance:
  - 0.9918168886145597
  - -0.16520738947321334
  - 0.0
  - 0.0
  - 0.0
  - 0.0
  - -0.16520738947321334
  - 0.2152641192022866
  - 0.0
  - 0.0
  - 0.0
  - 0.0
  - 0.0
  - 0.0
  - 0.0
  - 0.0
  - 0.0
  - 0.0
  - 0.0
  - 0.0
  - 0.0
  - 0.0
  - 0.0
  - 0.0
  - 0.0
  - 0.0
  - 0.0
  - 0.0
  - 0.0
  - 0.0
  - 0.0
  - 0.0
  - 0.0
  - 0.0
  - 0.0
  - 0.1989872890813004
---
header:
  stamp:
    sec: 241
    nanosec: 903000000
  frame_id: map
pose:
  pose:
    position:
      x: 1.6172323453391535
      y: -3.784950806637433
      z: 0.0
    orientation:
      x: 0.0
      y: 0.0
      z: -0.9644233869871428
      w: 0.2643624985360969
  covariance:
  - 1.0241437125222692
  - -0.147869456910521
  - 0.0
  - 0.0
  - 0.0
  - 0.0
  - -0.14786945691052011
  - 0.22281169430904768
  - 0.0
  - 0.0
  - 0.0
  - 0.0
  - 0.0
  - 0.0
  - 0.0
  - 0.0
  - 0.0
  - 0.0
  - 0.0
  - 0.0
  - 0.0
  - 0.0
  - 0.0
  - 0.0
  - 0.0
  - 0.0
  - 0.0
  - 0.0
  - 0.0
  - 0.0
  - 0.0
  - 0.0
  - 0.0
  - 0.0
  - 0.0
  - 0.1820002841352204
---
header:
  stamp:
    sec: 245
    nanosec: 503000000
  frame_id: map
pose:
  pose:
    position:
      x: 1.4424907495024892
      y: -3.893395570592743
      z: 0.0
    orientation:
      x: 0.0
      y: 0.0
      z: -0.9852168385638425
      w: 0.17131194065291444
  covariance:
  - 1.098811527635903
  - -0.13886422067265602
  - 0.0
  - 0.0
  - 0.0
  - 0.0
  - -0.13886422067265602
  - 0.19863178241500457
  - 0.0
  - 0.0
  - 0.0
  - 0.0
  - 0.0
  - 0.0
  - 0.0
  - 0.0
  - 0.0
  - 0.0
  - 0.0
  - 0.0
  - 0.0
  - 0.0
  - 0.0
  - 0.0
  - 0.0
  - 0.0
  - 0.0
  - 0.0
  - 0.0
  - 0.0
  - 0.0
  - 0.0
  - 0.0
  - 0.0
  - 0.0
  - 0.1661121310787411
---
header:
  stamp:
    sec: 247
    nanosec: 303000000
  frame_id: map
pose:
  pose:
    position:
      x: 1.2715394298238867
      y: -3.94120803522206
      z: 0.0
    orientation:
      x: 0.0
      y: 0.0
      z: -0.9979526894853343
      w: 0.06395646604517721
  covariance:
  - 0.7827875579545673
  - -0.08834425001140733
  - 0.0
  - 0.0
  - 0.0
  - 0.0
  - -0.08834425001140733
  - 0.15642643534374834
  - 0.0
  - 0.0
  - 0.0
  - 0.0
  - 0.0
  - 0.0
  - 0.0
  - 0.0
  - 0.0
  - 0.0
  - 0.0
  - 0.0
  - 0.0
  - 0.0
  - 0.0
  - 0.0
  - 0.0
  - 0.0
  - 0.0
  - 0.0
  - 0.0
  - 0.0
  - 0.0
  - 0.0
  - 0.0
  - 0.0
  - 0.0
  - 0.11690525779723109
---
header:
  stamp:
    sec: 248
    nanosec: 503000000
  frame_id: map
pose:
  pose:
    position:
      x: 1.0141203717291443
      y: -4.010851162195525
      z: 0.0
    orientation:
      x: 0.0
      y: 0.0
      z: -0.999477369075827
      w: 0.0323262850519988
  covariance:
  - 0.592862577134482
  - -0.056482066890854554
  - 0.0
  - 0.0
  - 0.0
  - 0.0
  - -0.056482066890853666
  - 0.12069128271634
  - 0.0
  - 0.0
  - 0.0
  - 0.0
  - 0.0
  - 0.0
  - 0.0
  - 0.0
  - 0.0
  - 0.0
  - 0.0
  - 0.0
  - 0.0
  - 0.0
  - 0.0
  - 0.0
  - 0.0
  - 0.0
  - 0.0
  - 0.0
  - 0.0
  - 0.0
  - 0.0
  - 0.0
  - 0.0
  - 0.0
  - 0.0
  - 0.09477732621134312
---
header:
  stamp:
    sec: 249
    nanosec: 703000000
  frame_id: map
pose:
  pose:
    position:
      x: 0.7467221195186396
      y: -4.027995982387931
      z: 0.0
    orientation:
      x: 0.0
      y: 0.0
      z: 0.9980759850745842
      w: 0.06200264524517018
  covariance:
  - 0.41832343523189897
  - 0.008263170263361985
  - 0.0
  - 0.0
  - 0.0
  - 0.0
  - 0.008263170263361985
  - 0.08450427969710006
  - 0.0
  - 0.0
  - 0.0
  - 0.0
  - 0.0
  - 0.0
  - 0.0
  - 0.0
  - 0.0
  - 0.0
  - 0.0
  - 0.0
  - 0.0
  - 0.0
  - 0.0
  - 0.0
  - 0.0
  - 0.0
  - 0.0
  - 0.0
  - 0.0
  - 0.0
  - 0.0
  - 0.0
  - 0.0
  - 0.0
  - 0.0
  - 0.08611235916545418
---
header:
  stamp:
    sec: 250
    nanosec: 903000000
  frame_id: map
pose:
  pose:
    position:
      x: 0.5085194722507488
      y: -4.019550281426677
      z: 0.0
    orientation:
      x: 0.0
      y: 0.0
      z: 0.9984934714175265
      w: 0.054870643668331644
  covariance:
  - 0.1252216887581849
  - 0.0014428478669090694
  - 0.0
  - 0.0
  - 0.0
  - 0.0
  - 0.0014428478669090694
  - 0.06959826405165259
  - 0.0
  - 0.0
  - 0.0
  - 0.0
  - 0.0
  - 0.0
  - 0.0
  - 0.0
  - 0.0
  - 0.0
  - 0.0
  - 0.0
  - 0.0
  - 0.0
  - 0.0
  - 0.0
  - 0.0
  - 0.0
  - 0.0
  - 0.0
  - 0.0
  - 0.0
  - 0.0
  - 0.0
  - 0.0
  - 0.0
  - 0.0
  - 0.06942800397181134
---
header:
  stamp:
    sec: 252
    nanosec: 103000000
  frame_id: map
pose:
  pose:
    position:
      x: 0.28394060857210807
      y: -4.000333789042383
      z: 0.0
    orientation:
      x: 0.0
      y: 0.0
      z: 0.9983250170388609
      w: 0.05785464851123041
  covariance:
  - 0.12028142226713145
  - 0.00699204139989984
  - 0.0
  - 0.0
  - 0.0
  - 0.0
  - 0.006992041399900062
  - 0.07650548672583923
  - 0.0
  - 0.0
  - 0.0
  - 0.0
  - 0.0
  - 0.0
  - 0.0
  - 0.0
  - 0.0
  - 0.0
  - 0.0
  - 0.0
  - 0.0
  - 0.0
  - 0.0
  - 0.0
  - 0.0
  - 0.0
  - 0.0
  - 0.0
  - 0.0
  - 0.0
  - 0.0
  - 0.0
  - 0.0
  - 0.0
  - 0.0
  - 0.06255530374472798
---
header:
  stamp:
    sec: 253
    nanosec: 303000000
  frame_id: map
pose:
  pose:
    position:
      x: 0.057578977689987355
      y: -3.9836313289499916
      z: 0.0
    orientation:
      x: 0.0
      y: 0.0
      z: 0.9970664650968162
      w: 0.07654060477510927
  covariance:
  - 0.11549000361702008
  - 0.006932345591372235
  - 0.0
  - 0.0
  - 0.0
  - 0.0
  - 0.006932345591372235
  - 0.06892331771773286
  - 0.0
  - 0.0
  - 0.0
  - 0.0
  - 0.0
  - 0.0
  - 0.0
  - 0.0
  - 0.0
  - 0.0
  - 0.0
  - 0.0
  - 0.0
  - 0.0
  - 0.0
  - 0.0
  - 0.0
  - 0.0
  - 0.0
  - 0.0
  - 0.0
  - 0.0
  - 0.0
  - 0.0
  - 0.0
  - 0.0
  - 0.0
  - 0.061634646869472814
---
header:
  stamp:
    sec: 254
    nanosec: 503000000
  frame_id: map
pose:
  pose:
    position:
      x: -0.1632936375850723
      y: -3.939328590630284
      z: 0.0
    orientation:
      x: 0.0
      y: 0.0
      z: 0.9948965311901027
      w: 0.10090040746152087
  covariance:
  - 0.10660681871995761
  - 0.008842137259441163
  - 0.0
  - 0.0
  - 0.0
  - 0.0
  - 0.008842137259441163
  - 0.07460238414625486
  - 0.0
  - 0.0
  - 0.0
  - 0.0
  - 0.0
  - 0.0
  - 0.0
  - 0.0
  - 0.0
  - 0.0
  - 0.0
  - 0.0
  - 0.0
  - 0.0
  - 0.0
  - 0.0
  - 0.0
  - 0.0
  - 0.0
  - 0.0
  - 0.0
  - 0.0
  - 0.0
  - 0.0
  - 0.0
  - 0.0
  - 0.0
  - 0.07205686432481284
---
header:
  stamp:
    sec: 255
    nanosec: 903000000
  frame_id: map
pose:
  pose:
    position:
      x: -0.4424679261759976
      y: -3.9098672259081515
      z: 0.0
    orientation:
      x: 0.0
      y: 0.0
      z: 0.9950941860745035
      w: 0.09893210217478185
  covariance:
  - 0.10590776046134412
  - 0.005263954246234048
  - 0.0
  - 0.0
  - 0.0
  - 0.0
  - 0.005263954246234048
  - 0.05939923370205413
  - 0.0
  - 0.0
  - 0.0
  - 0.0
  - 0.0
  - 0.0
  - 0.0
  - 0.0
  - 0.0
  - 0.0
  - 0.0
  - 0.0
  - 0.0
  - 0.0
  - 0.0
  - 0.0
  - 0.0
  - 0.0
  - 0.0
  - 0.0
  - 0.0
  - 0.0
  - 0.0
  - 0.0
  - 0.0
  - 0.0
  - 0.0
  - 0.062007176604230385
---
header:
  stamp:
    sec: 257
    nanosec: 103000000
  frame_id: map
pose:
  pose:
    position:
      x: -0.6954106092570196
      y: -3.8631076768273225
      z: 0.0
    orientation:
      x: 0.0
      y: 0.0
      z: 0.9904078594321929
      w: 0.13817478776875952
  covariance:
  - 0.10813308625705931
  - 0.004372798287743063
  - 0.0
  - 0.0
  - 0.0
  - 0.0
  - 0.004372798287743063
  - 0.052248156971280935
  - 0.0
  - 0.0
  - 0.0
  - 0.0
  - 0.0
  - 0.0
  - 0.0
  - 0.0
  - 0.0
  - 0.0
  - 0.0
  - 0.0
  - 0.0
  - 0.0
  - 0.0
  - 0.0
  - 0.0
  - 0.0
  - 0.0
  - 0.0
  - 0.0
  - 0.0
  - 0.0
  - 0.0
  - 0.0
  - 0.0
  - 0.0
  - 0.07320792916045714
---
header:
  stamp:
    sec: 258
    nanosec: 503000000
  frame_id: map
pose:
  pose:
    position:
      x: -0.9767285604923883
      y: -3.7681753898467196
      z: 0.0
    orientation:
      x: 0.0
      y: 0.0
      z: 0.9836818725262367
      w: 0.17991657417613455
  covariance:
  - 0.10604933578156617
  - 0.0038972942530954846
  - 0.0
  - 0.0
  - 0.0
  - 0.0
  - 0.0038972942530954846
  - 0.05183682454446448
  - 0.0
  - 0.0
  - 0.0
  - 0.0
  - 0.0
  - 0.0
  - 0.0
  - 0.0
  - 0.0
  - 0.0
  - 0.0
  - 0.0
  - 0.0
  - 0.0
  - 0.0
  - 0.0
  - 0.0
  - 0.0
  - 0.0
  - 0.0
  - 0.0
  - 0.0
  - 0.0
  - 0.0
  - 0.0
  - 0.0
  - 0.0
  - 0.0913489032898919
---
header:
  stamp:
    sec: 259
    nanosec: 903000000
  frame_id: map
pose:
  pose:
    position:
      x: -1.2509830131958002
      y: -3.643866777592954
      z: 0.0
    orientation:
      x: 0.0
      y: 0.0
      z: 0.9730627085057146
      w: 0.23054059363921695
  covariance:
  - 0.10763113803463509
  - 0.010123294526171556
  - 0.0
  - 0.0
  - 0.0
  - 0.0
  - 0.010123294526171556
  - 0.07935735242706521
  - 0.0
  - 0.0
  - 0.0
  - 0.0
  - 0.0
  - 0.0
  - 0.0
  - 0.0
  - 0.0
  - 0.0
  - 0.0
  - 0.0
  - 0.0
  - 0.0
  - 0.0
  - 0.0
  - 0.0
  - 0.0
  - 0.0
  - 0.0
  - 0.0
  - 0.0
  - 0.0
  - 0.0
  - 0.0
  - 0.0
  - 0.0
  - 0.11369014186826706
---
header:
  stamp:
    sec: 261
    nanosec: 503000000
  frame_id: map
pose:
  pose:
    position:
      x: -1.5459146280469058
      y: -3.5093259069896545
      z: 0.0
    orientation:
      x: 0.0
      y: 0.0
      z: 0.9618824919341871
      w: 0.27346310849999217
  covariance:
  - 0.088832322659667
  - 0.021965476380104043
  - 0.0
  - 0.0
  - 0.0
  - 0.0
  - 0.021965476380103155
  - 0.1089785357345665
  - 0.0
  - 0.0
  - 0.0
  - 0.0
  - 0.0
  - 0.0
  - 0.0
  - 0.0
  - 0.0
  - 0.0
  - 0.0
  - 0.0
  - 0.0
  - 0.0
  - 0.0
  - 0.0
  - 0.0
  - 0.0
  - 0.0
  - 0.0
  - 0.0
  - 0.0
  - 0.0
  - 0.0
  - 0.0
  - 0.0
  - 0.0
  - 0.11676753254020596
---
header:
  stamp:
    sec: 265
    nanosec: 503000000
  frame_id: map
pose:
  pose:
    position:
      x: -1.728556019964718
      y: -3.3964679193351404
      z: 0.0
    orientation:
      x: 0.0
      y: 0.0
      z: 0.9235764489014989
      w: 0.3834143229386416
  covariance:
  - 0.08526038593221896
  - 0.033492772813712435
  - 0.0
  - 0.0
  - 0.0
  - 0.0
  - 0.033492772813712435
  - 0.136055130176441
  - 0.0
  - 0.0
  - 0.0
  - 0.0
  - 0.0
  - 0.0
  - 0.0
  - 0.0
  - 0.0
  - 0.0
  - 0.0
  - 0.0
  - 0.0
  - 0.0
  - 0.0
  - 0.0
  - 0.0
  - 0.0
  - 0.0
  - 0.0
  - 0.0
  - 0.0
  - 0.0
  - 0.0
  - 0.0
  - 0.0
  - 0.0
  - 0.11623071044082772
---
header:
  stamp:
    sec: 267
    nanosec: 503000000
  frame_id: map
pose:
  pose:
    position:
      x: -1.7651986442557361
      y: -3.406872855700691
      z: 0.0
    orientation:
      x: 0.0
      y: 0.0
      z: 0.8778931407399962
      w: 0.4788565896400144
  covariance:
  - 0.06970631939146799
  - 0.030693107815967124
  - 0.0
  - 0.0
  - 0.0
  - 0.0
  - 0.030693107815967124
  - 0.1289109805109394
  - 0.0
  - 0.0
  - 0.0
  - 0.0
  - 0.0
  - 0.0
  - 0.0
  - 0.0
  - 0.0
  - 0.0
  - 0.0
  - 0.0
  - 0.0
  - 0.0
  - 0.0
  - 0.0
  - 0.0
  - 0.0
  - 0.0
  - 0.0
  - 0.0
  - 0.0
  - 0.0
  - 0.0
  - 0.0
  - 0.0
  - 0.0
  - 0.10802682624620688
---
header:
  stamp:
    sec: 268
    nanosec: 503000000
  frame_id: map
pose:
  pose:
    position:
      x: -1.7637165521424538
      y: -3.414977120214924
      z: 0.0
    orientation:
      x: 0.0
      y: 0.0
      z: 0.8208219900457074
      w: 0.5711840864882394
  covariance:
  - 0.059769951185039805
  - 0.02297849128042717
  - 0.0
  - 0.0
  - 0.0
  - 0.0
  - 0.02297849128042717
  - 0.11478195781803002
  - 0.0
  - 0.0
  - 0.0
  - 0.0
  - 0.0
  - 0.0
  - 0.0
  - 0.0
  - 0.0
  - 0.0
  - 0.0
  - 0.0
  - 0.0
  - 0.0
  - 0.0
  - 0.0
  - 0.0
  - 0.0
  - 0.0
  - 0.0
  - 0.0
  - 0.0
  - 0.0
  - 0.0
  - 0.0
  - 0.0
  - 0.0
  - 0.10110363855212683
---
header:
  stamp:
    sec: 270
    nanosec: 103000000
  frame_id: map
pose:
  pose:
    position:
      x: -1.8256527054852432
      y: -3.154951135824583
      z: 0.0
    orientation:
      x: 0.0
      y: 0.0
      z: 0.7446628383561942
      w: 0.6674408267189659
  covariance:
  - 0.07017417863259201
  - 0.033833989968806044
  - 0.0
  - 0.0
  - 0.0
  - 0.0
  - 0.033833989968806044
  - 0.12728511089543737
  - 0.0
  - 0.0
  - 0.0
  - 0.0
  - 0.0
  - 0.0
  - 0.0
  - 0.0
  - 0.0
  - 0.0
  - 0.0
  - 0.0
  - 0.0
  - 0.0
  - 0.0
  - 0.0
  - 0.0
  - 0.0
  - 0.0
  - 0.0
  - 0.0
  - 0.0
  - 0.0
  - 0.0
  - 0.0
  - 0.0
  - 0.0
  - 0.12337130153873173
---
header:
  stamp:
    sec: 271
    nanosec: 303000000
  frame_id: map
pose:
  pose:
    position:
      x: -1.8283761048357174
      y: -2.9138342283396077
      z: 0.0
    orientation:
      x: 0.0
      y: 0.0
      z: 0.7343242336140542
      w: 0.6787988803225385
  covariance:
  - 0.07560834500056579
  - 0.03656299878244074
  - 0.0
  - 0.0
  - 0.0
  - 0.0
  - 0.03656299878243985
  - 0.12502655229633142
  - 0.0
  - 0.0
  - 0.0
  - 0.0
  - 0.0
  - 0.0
  - 0.0
  - 0.0
  - 0.0
  - 0.0
  - 0.0
  - 0.0
  - 0.0
  - 0.0
  - 0.0
  - 0.0
  - 0.0
  - 0.0
  - 0.0
  - 0.0
  - 0.0
  - 0.0
  - 0.0
  - 0.0
  - 0.0
  - 0.0
  - 0.0
  - 0.11256420373194284
---
header:
  stamp:
    sec: 272
    nanosec: 303000000
  frame_id: map
pose:
  pose:
    position:
      x: -1.8456290175195527
      y: -2.6956978904110795
      z: 0.0
    orientation:
      x: 0.0
      y: 0.0
      z: 0.7981628090886198
      w: 0.6024418064740887
  covariance:
  - 0.08013423752240012
  - 0.0371108484939775
  - 0.0
  - 0.0
  - 0.0
  - 0.0
  - 0.03711084849397839
  - 0.12183321511056278
  - 0.0
  - 0.0
  - 0.0
  - 0.0
  - 0.0
  - 0.0
  - 0.0
  - 0.0
  - 0.0
  - 0.0
  - 0.0
  - 0.0
  - 0.0
  - 0.0
  - 0.0
  - 0.0
  - 0.0
  - 0.0
  - 0.0
  - 0.0
  - 0.0
  - 0.0
  - 0.0
  - 0.0
  - 0.0
  - 0.0
  - 0.0
  - 0.09346952952204717
---
header:
  stamp:
    sec: 273
    nanosec: 103000000
  frame_id: map
pose:
  pose:
    position:
      x: -1.8847978330463684
      y: -2.5164793475369494
      z: 0.0
    orientation:
      x: 0.0
      y: 0.0
      z: 0.8588772263676112
      w: 0.5121815205833564
  covariance:
  - 0.08527588197046754
  - 0.03241928018338136
  - 0.0
  - 0.0
  - 0.0
  - 0.0
  - 0.03241928018338136
  - 0.11896602267453993
  - 0.0
  - 0.0
  - 0.0
  - 0.0
  - 0.0
  - 0.0
  - 0.0
  - 0.0
  - 0.0
  - 0.0
  - 0.0
  - 0.0
  - 0.0
  - 0.0
  - 0.0
  - 0.0
  - 0.0
  - 0.0
  - 0.0
  - 0.0
  - 0.0
  - 0.0
  - 0.0
  - 0.0
  - 0.0
  - 0.0
  - 0.0
  - 0.08515833131985805
---
header:
  stamp:
    sec: 273
    nanosec: 903000000
  frame_id: map
pose:
  pose:
    position:
      x: -1.9571186825914997
      y: -2.3354375154779183
      z: 0.0
    orientation:
      x: 0.0
      y: 0.0
      z: 0.9052355764555988
      w: 0.42491005062142234
  covariance:
  - 0.0963955796035596
  - 0.03157590949540179
  - 0.0
  - 0.0
  - 0.0
  - 0.0
  - 0.03157590949540179
  - 0.11582645799764446
  - 0.0
  - 0.0
  - 0.0
  - 0.0
  - 0.0
  - 0.0
  - 0.0
  - 0.0
  - 0.0
  - 0.0
  - 0.0
  - 0.0
  - 0.0
  - 0.0
  - 0.0
  - 0.0
  - 0.0
  - 0.0
  - 0.0
  - 0.0
  - 0.0
  - 0.0
  - 0.0
  - 0.0
  - 0.0
  - 0.0
  - 0.0
  - 0.08180178743415996
---
header:
  stamp:
    sec: 274
    nanosec: 703000000
  frame_id: map
pose:
  pose:
    position:
      x: -2.1109131046018343
      y: -2.2606824097994624
      z: 0.0
    orientation:
      x: 0.0
      y: 0.0
      z: 0.9523112787810971
      w: 0.3051282161752852
  covariance:
  - 0.10057723040374889
  - 0.03709738773413207
  - 0.0
  - 0.0
  - 0.0
  - 0.0
  - 0.03709738773413207
  - 0.14080299524049522
  - 0.0
  - 0.0
  - 0.0
  - 0.0
  - 0.0
  - 0.0
  - 0.0
  - 0.0
  - 0.0
  - 0.0
  - 0.0
  - 0.0
  - 0.0
  - 0.0
  - 0.0
  - 0.0
  - 0.0
